{"test05_user": "auto840362@auto.com", "test07_user_create": 19158529425, "test05_user_create": "auto896254@auto.com", "test07_zone_create": {"zone_id": "114847068106797609", "data": {"name": "Auto园区名称1541194303", "area": 1000, "building_num": 19, "loc": {"province": "上海市", "city": "上海市", "county": "静安区", "addr": "恒丰路329号"}, "coord": {"longitude": 121, "latitude": 31, "altitude": 0, "angle": 0}, "extra": {"build_corp": "建筑单位名称", "build_start_at": "2018-10-09", "construct_corp": "规划单位名称", "construct_end_at": "2018-10-09", "design_corp": "设计单位名称", "design_end_at": "2018-10-09", "plan_corp": "施工单位名称", "plan_end_at": "2018-10-09", "supervise_corp": "监理单位名称", "supervise_end_at": "2018-10-09"}}}, "test07_building_create": {"id": "114958990256910893", "name": "Auto建筑名称1541209036", "data": {"name": "Auto建筑名称1541209036", "loc": {"province": "上海市", "city": "上海市", "county": "静安区", "addr": "恒丰路329号"}, "area": 100, "layer_num": 31, "underlayer_num": 3, "coord": {"altitude": 122, "latitude": 32, "longitude": 0, "angle": 0}}}, "test09_building_create": {"id": "114958997856989741", "zone_id": "114958997655663655", "name": "Auto建筑名称1541209060", "data": {"name": "Auto建筑名称1541209060", "loc": {"province": "上海市", "city": "上海市", "county": "静安区", "addr": "恒丰路329号"}, "area": 100, "layer_num": 31, "underlayer_num": 3, "coord": {"altitude": 122, "latitude": 32, "longitude": 0, "angle": 0}, "zone_id": "114958997655663655", "extra": {"build_corp": "建筑单位名称", "build_start_at": "2018-10-09", "construct_corp": "规划单位名称", "construct_end_at": "2018-10-09", "design_corp": "设计单位名称", "design_end_at": "2018-10-09", "plan_corp": "施工单位名称", "plan_end_at": "2018-10-09", "supervise_corp": "监理单位名称", "supervise_end_at": "2018-10-09"}}}, "test01_building_model_entityget": {"building_id": "114959075485168173", "model_id": "114959076810568743", "guid": "ae4dcff3-52e0-4d66-bc6f-04c682f58fdd-00000691"}, "test03_building_model_get": {"building_id": "114959089561252397", "model_id": "114959090114901031"}}